{"version": 0.6, "generator": "Overpass API 0.7.62.5 1bd436f1", "osm3s": {"timestamp_osm_base": "2025-03-30T05:11:54Z", "copyright": "The data included in this document is from www.openstreetmap.org. The data is made available under ODbL."}, "elements": [{"type": "node", "id": 7732100479, "lat": 14.084416, "lon": 14.470274, "tags": {"GNS:dsg_code": "PND", "GNS:dsg_name": "pond", "GNS:id": "-1102163", "GNS:modify_date": "2008-03-27", "name": "Nioum", "natural": "water", "source": "GNS", "water": "pond"}}, {"type": "node", "id": 7732100480, "lat": 14.131914, "lon": 14.442465, "tags": {"GNS:dsg_code": "PND", "GNS:dsg_name": "pond", "GNS:id": "-1101957", "GNS:modify_date": "2008-03-27", "alt_name": "Ngefia", "name": "Ng\u00e9fia", "natural": "water", "source": "GNS", "water": "pond"}}, {"type": "node", "id": 7732103494, "lat": 14.080448, "lon": 14.320094, "tags": {"GNS:dsg_code": "PNDI", "GNS:dsg_name": "intermittent pond", "GNS:id": "-1102020", "GNS:modify_date": "2008-03-27", "intermittent": "yes", "name": "Ngouli", "natural": "water", "source": "GNS", "water": "pond"}}, {"type": "node", "id": 7732103497, "lat": 14.078825, "lon": 14.366306, "tags": {"GNS:dsg_code": "PNDI", "GNS:dsg_name": "intermittent pond", "GNS:id": "-1102577", "GNS:modify_date": "2008-03-27", "intermittent": "yes", "name": "Ouama", "natural": "water", "source": "GNS", "water": "pond"}}, {"type": "node", "id": 7732116790, "lat": 14.062879, "lon": 14.421176, "tags": {"GNS:dsg_code": "PND", "GNS:dsg_name": "pond", "GNS:id": "-1089557", "GNS:modify_date": "2008-03-27", "name": "Ardiafa", "natural": "water", "source": "GNS", "water": "pond"}}]}