{"version": 0.6, "generator": "Overpass API 0.7.62.5 1bd436f1", "osm3s": {"timestamp_osm_base": "2025-03-30T05:17:14Z", "copyright": "The data included in this document is from www.openstreetmap.org. The data is made available under ODbL."}, "elements": [{"type": "node", "id": 7732103241, "lat": 13.3911, "lon": 17.9231, "tags": {"GNS:dsg_code": "PNDI", "GNS:dsg_name": "intermittent pond", "GNS:id": "-1098373", "GNS:modify_date": "2008-09-15", "intermittent": "yes", "name": "Rahat Koudi el Khaba", "natural": "water", "source": "GNS", "water": "pond"}}, {"type": "node", "id": 7732103254, "lat": 13.4546, "lon": 17.821, "tags": {"GNS:dsg_code": "PNDI", "GNS:dsg_name": "intermittent pond", "GNS:id": "-1094916", "GNS:modify_date": "2008-09-15", "intermittent": "yes", "name": "Rahat Galoua", "natural": "water", "source": "GNS", "water": "pond"}}, {"type": "node", "id": 7732103258, "lat": 13.383, "lon": 17.7965, "tags": {"GNS:dsg_code": "PNDI", "GNS:dsg_name": "intermittent pond", "GNS:id": "-1089870", "GNS:modify_date": "2008-09-15", "intermittent": "yes", "name": "Rahat Azouma", "natural": "water", "source": "GNS", "water": "pond"}}, {"type": "node", "id": 7732103259, "lat": 13.4717, "lon": 17.8658, "tags": {"GNS:dsg_code": "PNDI", "GNS:dsg_name": "intermittent pond", "GNS:id": "-1089505", "GNS:modify_date": "2008-09-15", "intermittent": "yes", "name": "Rahat Araza", "natural": "water", "source": "GNS", "water": "pond"}}, {"type": "node", "id": 7732103275, "lat": 13.3326, "lon": 17.8356, "tags": {"GNS:dsg_code": "PNDI", "GNS:dsg_name": "intermittent pond", "GNS:id": "-1101299", "GNS:modify_date": "2008-09-15", "alt_name": "Rahat El Mougran Kebir;Rahat el Mougran Kebir", "intermittent": "yes", "name": "Rahat El Mougran K\u00e9bir", "natural": "water", "source": "GNS", "water": "pond"}}, {"type": "node", "id": 7732103279, "lat": 13.33, "lon": 17.9353, "tags": {"GNS:dsg_code": "PNDI", "GNS:dsg_name": "intermittent pond", "GNS:id": "-1094182", "GNS:modify_date": "2008-09-15", "alt_name": "Rahat Elgide", "intermittent": "yes", "name": "Rahat Elgid\u00e9", "natural": "water", "source": "GNS", "water": "pond"}}, {"type": "node", "id": 7732103330, "lat": 13.3645, "lon": 17.9337, "tags": {"GNS:dsg_code": "PNDI", "GNS:dsg_name": "intermittent pond", "GNS:id": "-1105746", "GNS:modify_date": "2008-09-15", "alt_name": "Rahat Zalata Idjelidj", "intermittent": "yes", "name": "Rahat Zalata Idj\u00e9lidj", "natural": "water", "source": "GNS", "water": "pond"}}]}