{"version": 0.6, "generator": "Overpass API 0.7.62.5 1bd436f1", "osm3s": {"timestamp_osm_base": "2025-03-30T05:15:05Z", "copyright": "The data included in this document is from www.openstreetmap.org. The data is made available under ODbL."}, "elements": [{"type": "node", "id": 7732103262, "lat": 14.9922, "lon": 16.218, "tags": {"GNS:dsg_code": "PNDI", "GNS:dsg_name": "intermittent pond", "GNS:id": "10303468", "GNS:modify_date": "2008-09-17", "intermittent": "yes", "name": "Meedi", "natural": "water", "source": "GNS", "water": "pond"}}, {"type": "node", "id": 7732103264, "lat": 14.9079, "lon": 16.1838, "tags": {"GNS:dsg_code": "PNDI", "GNS:dsg_name": "intermittent pond", "GNS:id": "10303480", "GNS:modify_date": "2008-09-17", "intermittent": "yes", "name": "Gara", "natural": "water", "source": "GNS", "water": "pond"}}, {"type": "node", "id": 7732103265, "lat": 14.8915, "lon": 16.1934, "tags": {"GNS:dsg_code": "PNDI", "GNS:dsg_name": "intermittent pond", "GNS:id": "10303479", "GNS:modify_date": "2008-09-17", "intermittent": "yes", "name": "Dora", "natural": "water", "source": "GNS", "water": "pond"}}, {"type": "node", "id": 7732103266, "lat": 14.8806, "lon": 16.1743, "tags": {"GNS:dsg_code": "PNDI", "GNS:dsg_name": "intermittent pond", "GNS:id": "10303478", "GNS:modify_date": "2008-09-17", "intermittent": "yes", "name": "Bosara", "natural": "water", "source": "GNS", "water": "pond"}}, {"type": "node", "id": 7732103267, "lat": 14.9307, "lon": 16.1425, "tags": {"GNS:dsg_code": "PNDI", "GNS:dsg_name": "intermittent pond", "GNS:id": "10303477", "GNS:modify_date": "2008-09-17", "intermittent": "yes", "name": "Sokoum", "natural": "water", "source": "GNS", "water": "pond"}}, {"type": "node", "id": 7732103276, "lat": 14.8941, "lon": 16.1151, "tags": {"GNS:dsg_code": "PNDI", "GNS:dsg_name": "intermittent pond", "GNS:id": "10303456", "GNS:modify_date": "2008-09-17", "alt_name": "Mousa Gedaya", "intermittent": "yes", "name": "Mousa G\u00e9daya", "natural": "water", "source": "GNS", "water": "pond"}}, {"type": "node", "id": 7732103377, "lat": 14.8898, "lon": 16.2723, "tags": {"GNS:dsg_code": "PNDI", "GNS:dsg_name": "intermittent pond", "GNS:id": "-1103899", "GNS:modify_date": "2010-04-14", "alt_name": "Soneanga", "intermittent": "yes", "name": "Son\u00e9anga", "natural": "water", "source": "GNS", "water": "pond"}}, {"type": "node", "id": 7732103383, "lat": 14.8997, "lon": 16.2878, "tags": {"GNS:dsg_code": "PNDI", "GNS:dsg_name": "intermittent pond", "GNS:id": "-1098165", "GNS:modify_date": "2010-04-14", "alt_name": "Korkedinga", "intermittent": "yes", "name": "Kork\u00e9dinga", "natural": "water", "source": "GNS", "water": "pond"}}, {"type": "node", "id": 7732103385, "lat": 14.7233, "lon": 16.3801, "tags": {"GNS:dsg_code": "PNDI", "GNS:dsg_name": "intermittent pond", "GNS:id": "10303434", "GNS:modify_date": "2010-04-14", "intermittent": "yes", "name": "Waliminga", "natural": "water", "source": "GNS", "water": "pond"}}, {"type": "node", "id": 7732103388, "lat": 14.837, "lon": 16.4576, "tags": {"GNS:dsg_code": "PNDI", "GNS:dsg_name": "intermittent pond", "GNS:id": "-1092245", "GNS:modify_date": "2010-04-14", "intermittent": "yes", "name": "Chogadou", "natural": "water", "source": "GNS", "water": "pond"}}, {"type": "node", "id": 7732103389, "lat": 14.8924, "lon": 16.236, "tags": {"GNS:dsg_code": "PNDI", "GNS:dsg_name": "intermittent pond", "GNS:id": "10303457", "GNS:modify_date": "2010-04-14", "alt_name": "Alemanga", "intermittent": "yes", "name": "Al\u00e9manga", "natural": "water", "source": "GNS", "water": "pond"}}, {"type": "node", "id": 7732103391, "lat": 14.9753, "lon": 16.3504, "tags": {"GNS:dsg_code": "PNDI", "GNS:dsg_name": "intermittent pond", "GNS:id": "10303470", "GNS:modify_date": "2010-04-14", "intermittent": "yes", "name": "Beyganga", "natural": "water", "source": "GNS", "water": "pond"}}, {"type": "node", "id": 7732103392, "lat": 14.9977, "lon": 16.3082, "tags": {"GNS:dsg_code": "PNDI", "GNS:dsg_name": "intermittent pond", "GNS:id": "10303469", "GNS:modify_date": "2010-04-14", "intermittent": "yes", "name": "Bougidinga", "natural": "water", "source": "GNS", "water": "pond"}}, {"type": "node", "id": 7732103393, "lat": 14.9783, "lon": 16.435, "tags": {"GNS:dsg_code": "PNDI", "GNS:dsg_name": "intermittent pond", "GNS:id": "10303459", "GNS:modify_date": "2010-04-14", "intermittent": "yes", "name": "Taranga", "natural": "water", "source": "GNS", "water": "pond"}}, {"type": "node", "id": 7732103394, "lat": 14.8788, "lon": 16.3397, "tags": {"GNS:dsg_code": "PNDI", "GNS:dsg_name": "intermittent pond", "GNS:id": "10303458", "GNS:modify_date": "2010-04-14", "intermittent": "yes", "name": "Naranga", "natural": "water", "source": "GNS", "water": "pond"}}, {"type": "node", "id": 7732103396, "lat": 14.7543, "lon": 16.3633, "tags": {"GNS:dsg_code": "PNDI", "GNS:dsg_name": "intermittent pond", "GNS:id": "10303492", "GNS:modify_date": "2010-04-14", "intermittent": "yes", "name": "Adoumou", "natural": "water", "source": "GNS", "water": "pond"}}, {"type": "node", "id": 7732103400, "lat": 14.9356, "lon": 16.2152, "tags": {"GNS:dsg_code": "PNDI", "GNS:dsg_name": "intermittent pond", "GNS:id": "10303476", "GNS:modify_date": "2010-04-14", "intermittent": "yes", "name": "Sofoanga", "natural": "water", "source": "GNS", "water": "pond"}}, {"type": "node", "id": 7732103405, "lat": 14.8685, "lon": 16.4933, "tags": {"GNS:dsg_code": "PNDI", "GNS:dsg_name": "intermittent pond", "GNS:id": "-1092376", "GNS:modify_date": "2010-04-14", "intermittent": "yes", "name": "Dakousemenga", "natural": "water", "source": "GNS", "water": "pond"}}, {"type": "node", "id": 7732103407, "lat": 14.7772, "lon": 16.3927, "tags": {"GNS:dsg_code": "PNDI", "GNS:dsg_name": "intermittent pond", "GNS:id": "-1104060", "GNS:modify_date": "2010-04-14", "intermittent": "yes", "name": "Sowinga", "natural": "water", "source": "GNS", "water": "pond"}}, {"type": "node", "id": 7732103411, "lat": 14.9075, "lon": 16.3042, "tags": {"GNS:dsg_code": "PNDI", "GNS:dsg_name": "intermittent pond", "GNS:id": "-1104455", "GNS:modify_date": "2010-04-14", "alt_name": "Tcherogounga", "intermittent": "yes", "name": "Tch\u00e9rogounga", "natural": "water", "source": "GNS", "water": "pond"}}, {"type": "node", "id": 7732103413, "lat": 14.7848, "lon": 16.3026, "tags": {"GNS:dsg_code": "PNDI", "GNS:dsg_name": "intermittent pond", "GNS:id": "-1099464", "GNS:modify_date": "2010-04-14", "intermittent": "yes", "name": "Lowounga", "natural": "water", "source": "GNS", "water": "pond"}}, {"type": "node", "id": 7732103414, "lat": 14.9427, "lon": 16.2764, "tags": {"GNS:dsg_code": "PNDI", "GNS:dsg_name": "intermittent pond", "GNS:id": "-1097883", "GNS:modify_date": "2010-04-14", "intermittent": "yes", "name": "Kofounga", "natural": "water", "source": "GNS", "water": "pond"}}, {"type": "node", "id": 7732103415, "lat": 14.7868, "lon": 16.3431, "tags": {"GNS:dsg_code": "PNDI", "GNS:dsg_name": "intermittent pond", "GNS:id": "-1089736", "GNS:modify_date": "2010-04-14", "intermittent": "yes", "name": "Askanda", "natural": "water", "source": "GNS", "water": "pond"}}, {"type": "node", "id": 7732103416, "lat": 14.846, "lon": 16.4878, "tags": {"GNS:dsg_code": "PNDI", "GNS:dsg_name": "intermittent pond", "GNS:id": "-1093552", "GNS:modify_date": "2010-04-14", "alt_name": "Dode", "intermittent": "yes", "name": "Dod\u00e9", "natural": "water", "source": "GNS", "water": "pond"}}, {"type": "node", "id": 7732103417, "lat": 14.77233, "lon": 16.429858, "tags": {"GNS:dsg_code": "PNDI", "GNS:dsg_name": "intermittent pond", "GNS:id": "-1088420", "GNS:modify_date": "2010-04-14", "intermittent": "yes", "name": "Ala Diabanga", "natural": "water", "source": "GNS", "water": "pond"}}, {"type": "node", "id": 7732137089, "lat": 14.8421, "lon": 16.4399, "tags": {"GNS:dsg_code": "LKI", "GNS:dsg_name": "intermittent lake", "GNS:id": "-1098240", "GNS:modify_date": "2010-04-14", "intermittent": "yes", "name": "Kosanga", "natural": "water", "source": "GNS", "water": "lake"}}, {"type": "node", "id": 7732137090, "lat": 14.8715, "lon": 16.4317, "tags": {"GNS:dsg_code": "LKI", "GNS:dsg_name": "intermittent lake", "GNS:id": "-1087817", "GNS:modify_date": "2010-04-14", "intermittent": "yes", "name": "Abdalay", "natural": "water", "source": "GNS", "water": "lake"}}, {"type": "node", "id": 7732137091, "lat": 14.9921, "lon": 16.4515, "tags": {"GNS:dsg_code": "LKI", "GNS:dsg_name": "intermittent lake", "GNS:id": "-1100258", "GNS:modify_date": "2010-04-14", "intermittent": "yes", "name": "Marianga", "natural": "water", "source": "GNS", "water": "lake"}}, {"type": "node", "id": 7732137092, "lat": 14.8547, "lon": 16.4336, "tags": {"GNS:dsg_code": "LKI", "GNS:dsg_name": "intermittent lake", "GNS:id": "-1104600", "GNS:modify_date": "2010-04-14", "alt_name": "Tefidrousou", "intermittent": "yes", "name": "T\u00e9fidrousou", "natural": "water", "source": "GNS", "water": "lake"}}, {"type": "node", "id": 7732137093, "lat": 14.7679, "lon": 16.4519, "tags": {"GNS:dsg_code": "LKI", "GNS:dsg_name": "intermittent lake", "GNS:id": "-1104612", "GNS:modify_date": "2010-04-14", "alt_name": "Tefounga", "intermittent": "yes", "name": "T\u00e9founga", "natural": "water", "source": "GNS", "water": "lake"}}, {"type": "node", "id": 7732137095, "lat": 14.9534, "lon": 16.3698, "tags": {"GNS:dsg_code": "LKI", "GNS:dsg_name": "intermittent lake", "GNS:id": "-1092814", "GNS:modify_date": "2010-04-14", "intermittent": "yes", "name": "Diangazop", "natural": "water", "source": "GNS", "water": "lake"}}, {"type": "node", "id": 7732137097, "lat": 14.8487, "lon": 16.4695, "tags": {"GNS:dsg_code": "LKI", "GNS:dsg_name": "intermittent lake", "GNS:id": "-1092354", "GNS:modify_date": "2010-04-14", "alt_name": "Dagire", "intermittent": "yes", "name": "Dagir\u00e9", "natural": "water", "source": "GNS", "water": "lake"}}, {"type": "node", "id": 7732137098, "lat": 14.9004, "lon": 16.4588, "tags": {"GNS:dsg_code": "LKI", "GNS:dsg_name": "intermittent lake", "GNS:id": "-1105293", "GNS:modify_date": "2010-04-14", "intermittent": "yes", "name": "Tourdounga", "natural": "water", "source": "GNS", "water": "lake"}}, {"type": "node", "id": 7732137099, "lat": 14.8018, "lon": 16.4692, "tags": {"GNS:dsg_code": "LKI", "GNS:dsg_name": "intermittent lake", "GNS:id": "-1090389", "GNS:modify_date": "2010-04-14", "intermittent": "yes", "name": "Barkayounga", "natural": "water", "source": "GNS", "water": "lake"}}, {"type": "node", "id": 7732137100, "lat": 14.887124, "lon": 16.350849, "tags": {"GNS:dsg_code": "LKI", "GNS:dsg_name": "intermittent lake", "GNS:id": "-1088900", "GNS:modify_date": "2010-04-14", "alt_name": "Ameresenga", "intermittent": "yes", "name": "Am\u00e9r\u00e9s\u00e9nga", "natural": "water", "source": "GNS", "water": "lake"}}, {"type": "node", "id": 7732137101, "lat": 14.9859, "lon": 16.2563, "tags": {"GNS:dsg_code": "LKI", "GNS:dsg_name": "intermittent lake", "GNS:id": "-1092901", "GNS:modify_date": "2010-04-14", "intermittent": "yes", "name": "Diginga", "natural": "water", "source": "GNS", "water": "lake"}}, {"type": "node", "id": 7732137102, "lat": 14.8432, "lon": 16.4197, "tags": {"GNS:dsg_code": "LKI", "GNS:dsg_name": "intermittent lake", "GNS:id": "-1095193", "GNS:modify_date": "2010-04-14", "intermittent": "yes", "name": "Gelanga", "natural": "water", "source": "GNS", "water": "lake"}}]}