{"version": 0.6, "generator": "Overpass API 0.7.62.5 1bd436f1", "osm3s": {"timestamp_osm_base": "2025-03-30T05:13:59Z", "copyright": "The data included in this document is from www.openstreetmap.org. The data is made available under ODbL."}, "elements": [{"type": "node", "id": 7732070721, "lat": 14.462126, "lon": 15.762008, "tags": {"GNS:dsg_code": "PNDI", "GNS:dsg_name": "intermittent pond", "GNS:id": "-1092125", "GNS:modify_date": "2009-02-24", "alt_name": "Charabe", "intermittent": "yes", "name": "Charab\u00e9", "natural": "water", "source": "GNS", "water": "pond"}}, {"type": "node", "id": 7732070731, "lat": 14.604339, "lon": 15.854945, "tags": {"GNS:dsg_code": "PNDI", "GNS:dsg_name": "intermittent pond", "GNS:id": "-1096857", "GNS:modify_date": "2009-02-24", "intermittent": "yes", "name": "Kalko", "natural": "water", "source": "GNS", "water": "pond"}}, {"type": "node", "id": 7732070741, "lat": 14.550101, "lon": 15.748991, "tags": {"GNS:dsg_code": "PNDI", "GNS:dsg_name": "intermittent pond", "GNS:id": "-1099247", "GNS:modify_date": "2009-02-24", "alt_name": "Leteyma", "intermittent": "yes", "name": "L\u00e9teyma", "natural": "water", "source": "GNS", "water": "pond"}}, {"type": "node", "id": 7732070748, "lat": 14.567171, "lon": 15.767071, "tags": {"GNS:dsg_code": "PNDI", "GNS:dsg_name": "intermittent pond", "GNS:id": "-1094163", "GNS:modify_date": "2009-02-24", "alt_name": "El Bera", "intermittent": "yes", "name": "El B\u00e9ra", "natural": "water", "source": "GNS", "water": "pond"}}, {"type": "node", "id": 7732070751, "lat": 14.596451, "lon": 15.835452, "tags": {"GNS:dsg_code": "PNDI", "GNS:dsg_name": "intermittent pond", "GNS:id": "-1097224", "GNS:modify_date": "2009-02-24", "intermittent": "yes", "name": "Kasmi", "natural": "water", "source": "GNS", "water": "pond"}}, {"type": "node", "id": 7732070770, "lat": 14.371309, "lon": 15.934544, "tags": {"GNS:dsg_code": "PNDI", "GNS:dsg_name": "intermittent pond", "GNS:id": "-1096836", "GNS:modify_date": "2009-02-24", "intermittent": "yes", "name": "Kali", "natural": "water", "source": "GNS", "water": "pond"}}, {"type": "node", "id": 7732070784, "lat": 14.639993, "lon": 15.863825, "tags": {"GNS:dsg_code": "PNDI", "GNS:dsg_name": "intermittent pond", "GNS:id": "-1104903", "GNS:modify_date": "2009-02-24", "alt_name": "Tinemou", "intermittent": "yes", "name": "Tin\u00e9mou", "natural": "water", "source": "GNS", "water": "pond"}}, {"type": "node", "id": 7732103191, "lat": 14.400185, "lon": 15.893844, "tags": {"GNS:dsg_code": "PNDI", "GNS:dsg_name": "intermittent pond", "GNS:id": "-1104729", "GNS:modify_date": "2009-02-24", "alt_name": "Terere", "intermittent": "yes", "name": "T\u00e9r\u00e9r\u00e9", "natural": "water", "source": "GNS", "water": "pond"}}, {"type": "node", "id": 7732103205, "lat": 14.504036, "lon": 15.920905, "tags": {"GNS:dsg_code": "PNDI", "GNS:dsg_name": "intermittent pond", "GNS:id": "-1102571", "GNS:modify_date": "2009-02-24", "intermittent": "yes", "name": "Oualmara", "natural": "water", "source": "GNS", "water": "pond"}}, {"type": "node", "id": 7732103207, "lat": 14.584241, "lon": 15.979382, "tags": {"GNS:dsg_code": "PNDI", "GNS:dsg_name": "intermittent pond", "GNS:id": "-1103350", "GNS:modify_date": "2009-02-24", "intermittent": "yes", "name": "Sakaouane", "natural": "water", "source": "GNS", "water": "pond"}}, {"type": "node", "id": 7732103255, "lat": 14.5696, "lon": 16.0621, "tags": {"GNS:dsg_code": "PNDI", "GNS:dsg_name": "intermittent pond", "GNS:id": "10303490", "GNS:modify_date": "2008-09-17", "intermittent": "yes", "name": "Ocha", "natural": "water", "source": "GNS", "water": "pond"}}, {"type": "node", "id": 7732103256, "lat": 14.5299, "lon": 16.1022, "tags": {"GNS:dsg_code": "PNDI", "GNS:dsg_name": "intermittent pond", "GNS:id": "10303488", "GNS:modify_date": "2008-09-17", "intermittent": "yes", "name": "Chaalay", "natural": "water", "source": "GNS", "water": "pond"}}, {"type": "node", "id": 7732103257, "lat": 14.5076, "lon": 16.0607, "tags": {"GNS:dsg_code": "PNDI", "GNS:dsg_name": "intermittent pond", "GNS:id": "10303487", "GNS:modify_date": "2008-09-17", "intermittent": "yes", "name": "Olomanga", "natural": "water", "source": "GNS", "water": "pond"}}, {"type": "node", "id": 7732103261, "lat": 14.474, "lon": 16.0093, "tags": {"GNS:dsg_code": "PNDI", "GNS:dsg_name": "intermittent pond", "GNS:id": "10303486", "GNS:modify_date": "2008-09-17", "intermittent": "yes", "name": "Tchoroganga", "natural": "water", "source": "GNS", "water": "pond"}}, {"type": "node", "id": 7732103263, "lat": 14.669, "lon": 16.0999, "tags": {"GNS:dsg_code": "PNDI", "GNS:dsg_name": "intermittent pond", "GNS:id": "10303465", "GNS:modify_date": "2008-09-17", "intermittent": "yes", "name": "Kolboromanga", "natural": "water", "source": "GNS", "water": "pond"}}, {"type": "node", "id": 7732103302, "lat": 14.471262, "lon": 15.982843, "tags": {"GNS:dsg_code": "PNDI", "GNS:dsg_name": "intermittent pond", "GNS:id": "10469911", "GNS:modify_date": "2009-04-06", "intermittent": "yes", "name": "Baude", "natural": "water", "source": "GNS", "water": "pond"}}, {"type": "node", "id": 7732103305, "lat": 14.5256, "lon": 16.0469, "tags": {"GNS:dsg_code": "PNDI", "GNS:dsg_name": "intermittent pond", "GNS:id": "-1088161", "GNS:modify_date": "2008-09-17", "intermittent": "yes", "name": "Adaray", "natural": "water", "source": "GNS", "water": "pond"}}, {"type": "node", "id": 7732103307, "lat": 14.6347, "lon": 16.0239, "tags": {"GNS:dsg_code": "PNDI", "GNS:dsg_name": "intermittent pond", "GNS:id": "-1092353", "GNS:modify_date": "2008-09-17", "intermittent": "yes", "name": "Daginga", "natural": "water", "source": "GNS", "water": "pond"}}, {"type": "node", "id": 7732103384, "lat": 14.3022, "lon": 16.0252, "tags": {"GNS:dsg_code": "PNDI", "GNS:dsg_name": "intermittent pond", "GNS:id": "10303435", "GNS:modify_date": "2010-04-14", "intermittent": "yes", "name": "Bogey", "natural": "water", "source": "GNS", "water": "pond"}}, {"type": "node", "id": 7732103421, "lat": 14.471544, "lon": 15.961806, "tags": {"GNS:dsg_code": "PNDI", "GNS:dsg_name": "intermittent pond", "GNS:id": "10442085", "GNS:modify_date": "2009-02-25", "alt_name": "Taletroude", "intermittent": "yes", "name": "Tal\u00e9troud\u00e9", "natural": "water", "source": "GNS", "water": "pond"}}, {"type": "node", "id": 7732103467, "lat": 14.46559, "lon": 15.914884, "tags": {"GNS:dsg_code": "PNDI", "GNS:dsg_name": "intermittent pond", "GNS:id": "10442086", "GNS:modify_date": "2009-02-25", "intermittent": "yes", "name": "Kogoulounga", "natural": "water", "source": "GNS", "water": "pond"}}, {"type": "node", "id": 7732103468, "lat": 14.485166, "lon": 15.95111, "tags": {"GNS:dsg_code": "PNDI", "GNS:dsg_name": "intermittent pond", "GNS:id": "10442084", "GNS:modify_date": "2009-02-25", "alt_name": "Tefidinga", "intermittent": "yes", "name": "T\u00e9fidinga", "natural": "water", "source": "GNS", "water": "pond"}}, {"type": "node", "id": 7732103556, "lat": 14.625126, "lon": 15.973814, "tags": {"GNS:dsg_code": "PNDI", "GNS:dsg_name": "intermittent pond", "GNS:id": "10441948", "GNS:modify_date": "2009-02-25", "intermittent": "yes", "name": "Isananga", "natural": "water", "source": "GNS", "water": "pond"}}, {"type": "node", "id": 7732103557, "lat": 14.574975, "lon": 15.844954, "tags": {"GNS:dsg_code": "PNDI", "GNS:dsg_name": "intermittent pond", "GNS:id": "10441951", "GNS:modify_date": "2009-02-25", "intermittent": "yes", "name": "Tefiang", "natural": "water", "source": "GNS", "water": "pond"}}, {"type": "node", "id": 7732103584, "lat": 14.498789, "lon": 15.821745, "tags": {"GNS:dsg_code": "PNDI", "GNS:dsg_name": "intermittent pond", "GNS:id": "10442038", "GNS:modify_date": "2009-02-25", "alt_name": "Chedibougoudina", "intermittent": "yes", "name": "Ch\u00e9dibougoudina", "natural": "water", "source": "GNS", "water": "pond"}}, {"type": "node", "id": 7732103590, "lat": 14.51443, "lon": 15.999747, "tags": {"GNS:dsg_code": "PNDI", "GNS:dsg_name": "intermittent pond", "GNS:id": "10441981", "GNS:modify_date": "2009-02-25", "intermittent": "yes", "name": "Bour", "natural": "water", "source": "GNS", "water": "pond"}}, {"type": "node", "id": 7732103599, "lat": 14.476153, "lon": 15.9814, "tags": {"GNS:dsg_code": "PNDI", "GNS:dsg_name": "intermittent pond", "GNS:id": "-1094964", "GNS:modify_date": "2009-02-24", "intermittent": "yes", "name": "Bir Ganam", "natural": "water", "source": "GNS", "water": "pond"}}, {"type": "node", "id": 7732126841, "lat": 14.555449, "lon": 15.8111, "tags": {"GNS:dsg_code": "LKI", "GNS:dsg_name": "intermittent lake", "GNS:id": "-1102632", "GNS:modify_date": "2009-02-23", "alt_name": "Ouasahabll", "intermittent": "yes", "name": "Ouasahabil", "natural": "water", "source": "GNS", "water": "lake"}}, {"type": "node", "id": 7732126842, "lat": 14.470804, "lon": 15.777666, "tags": {"GNS:dsg_code": "LKI", "GNS:dsg_name": "intermittent lake", "GNS:id": "-1101464", "GNS:modify_date": "2009-02-23", "intermittent": "yes", "name": "Mousachounga", "natural": "water", "source": "GNS", "water": "lake"}}, {"type": "node", "id": 7732126844, "lat": 14.451816, "lon": 15.791607, "tags": {"GNS:dsg_code": "LKI", "GNS:dsg_name": "intermittent lake", "GNS:id": "-1103449", "GNS:modify_date": "2009-02-23", "intermittent": "yes", "name": "Saney", "natural": "water", "source": "GNS", "water": "lake"}}, {"type": "node", "id": 7732126872, "lat": 14.521, "lon": 16.0184, "tags": {"GNS:dsg_code": "LKI", "GNS:dsg_name": "intermittent lake", "GNS:id": "-1098432", "GNS:modify_date": "2008-09-17", "intermittent": "yes", "name": "Kougoulinga", "natural": "water", "source": "GNS", "water": "lake"}}, {"type": "node", "id": 7732137096, "lat": 14.5864, "lon": 16.0375, "tags": {"GNS:dsg_code": "LKI", "GNS:dsg_name": "intermittent lake", "GNS:id": "-1102914", "GNS:modify_date": "2008-09-17", "intermittent": "yes", "name": "Ouyounga", "natural": "water", "source": "GNS", "water": "lake"}}, {"type": "node", "id": 7732137108, "lat": 14.302422, "lon": 15.777951, "tags": {"GNS:dsg_code": "LKI", "GNS:dsg_name": "intermittent lake", "GNS:id": "10442144", "GNS:modify_date": "2009-02-25", "intermittent": "yes", "name": "Griki", "natural": "water", "source": "GNS", "water": "lake"}}]}